{"tpye":"naver","places":[{"name":"가락공판장 석계점","address":"서울특별시 성북구 성북동 135-1 1층","lng":"312117","lat":"554884"},{"name":"가락시장","address":"서울특별시 송파구 가락동 600","lng":"321564","lat":"543829"},{"name":"가락공판장","address":"서울특별시 동대문구 답십리동","lng":"316920","lat":"552246"},{"name":"롯데슈퍼 가락점","address":"서울특별시 송파구 가락동 7","lng":"322864","lat":"544906"},{"name":"가락수산시장","address":"서울특별시 송파구 가락동","lng":"321392","lat":"543783"},{"name":"가락몰5관(씨푸드)","address":"서울특별시 송파구 가락동 600","lng":"322096","lat":"543735"},{"name":"가락몰","address":"서울특별시 송파구 가락동","lng":"322083","lat":"543866"},{"name":"가락몰판매동","address":"서울특별시 송파구 가락동 600","lng":"322041","lat":"543838"},{"name":"쿨마트","address":"서울특별시 강남구 도곡동 909-4","lng":"315220","lat":"543138"},{"name":"가락쌍문공판장","address":"서울특별시 도봉구 쌍문동 358","lng":"314185","lat":"561215"},{"name":"올리브영 가락시장역점","address":"서울특별시 송파구 가락동 99-7","lng":"322388","lat":"543848"},{"name":"가락공판장석계역점","address":"서울특별시 성북구 석관동 135-2","lng":"317711","lat":"557184"},{"name":"해나온식자재마트","address":"서울특별시 금천구 독산동 1041-24","lng":"303121","lat":"540915"},{"name":"가락몰4관(식문화)","address":"서울특별시 송파구 가락동 600","lng":"322143","lat":"543782"},{"name":"가락공판장","address":"서울특별시 중랑구 신내동 405-1","lng":"320586","lat":"556612"}],"page_token":16}